{
  "providers": [
    {
      "id": "dent_001",
      "name": "City Dental Care",
      "specialty": "dental",
      "address": "123 Main St, New York, NY 10001",
      "phone": "(212) 555-0123",
      "next_appt_days": 7,
      "location": "New York, NY",
      "accepts_carecredit": true,
      "rating": 4.8
    },
    {
      "id": "dent_002", 
      "name": "Smile Bright Dentistry",
      "specialty": "dental",
      "address": "456 Oak Ave, Los Angeles, CA 90210",
      "phone": "(323) 555-0456",
      "next_appt_days": 14,
      "location": "Los Angeles, CA",
      "accepts_carecredit": true,
      "rating": 4.6
    },
    {
      "id": "derm_001",
      "name": "Advanced Dermatology Center",
      "specialty": "dermatology",
      "address": "789 Elm St, Chicago, IL 60601",
      "phone": "(312) 555-0789",
      "next_appt_days": 21,
      "location": "Chicago, IL",
      "accepts_carecredit": true,
      "rating": 4.9
    },
    {
      "id": "orth_001",
      "name": "Orthopedic Specialists",
      "specialty": "orthopedic",
      "address": "321 Pine St, Houston, TX 77001",
      "phone": "(713) 555-0321",
      "next_appt_days": 10,
      "location": "Houston, TX",
      "accepts_carecredit": true,
      "rating": 4.7
    },
    {
      "id": "vet_001",
      "name": "Pet Care Veterinary Hospital",
      "specialty": "veterinary",
      "address": "654 Birch Rd, Phoenix, AZ 85001",
      "phone": "(602) 555-0654",
      "next_appt_days": 3,
      "location": "Phoenix, AZ",
      "accepts_carecredit": true,
      "rating": 4.8
    },
    {
      "id": "opht_001",
      "name": "Vision Care Center",
      "specialty": "ophthalmology",
      "address": "987 Cedar St, Philadelphia, PA 19101",
      "phone": "(215) 555-0987",
      "next_appt_days": 28,
      "location": "Philadelphia, PA",
      "accepts_carecredit": true,
      "rating": 4.5
    },
    {
      "id": "dent_003",
      "name": "Downtown Dental Group",
      "specialty": "dental",
      "address": "147 Broadway, New York, NY 10002", 
      "phone": "(212) 555-0147",
      "next_appt_days": 5,
      "location": "New York, NY",
      "accepts_carecredit": true,
      "rating": 4.7
    },
    {
      "id": "derm_002",
      "name": "Skin Health Associates",
      "specialty": "dermatology",
      "address": "258 Sunset Blvd, Los Angeles, CA 90211",
      "phone": "(323) 555-0258",
      "next_appt_days": 35,
      "location": "Los Angeles, CA",
      "accepts_carecredit": true,
      "rating": 4.4
    }
  ],
  "specialties": {
    "dental": ["teeth", "tooth", "dental", "dentist", "cavity", "crown", "root canal", "cleaning", "whitening"],
    "dermatology": ["skin", "dermatology", "dermatologist", "acne", "mole", "rash", "cosmetic", "botox"],
    "orthopedic": ["bone", "joint", "orthopedic", "knee", "hip", "shoulder", "fracture", "surgery"],
    "veterinary": ["pet", "dog", "cat", "veterinary", "vet", "animal"],
    "ophthalmology": ["eye", "vision", "glasses", "contacts", "laser", "cataract", "glaucoma"]
  },
  "procedure_mappings": {
    "D0120": {"name": "Periodic oral evaluation", "specialty": "dental"},
    "D0150": {"name": "Comprehensive oral evaluation", "specialty": "dental"},
    "D1110": {"name": "Prophylaxis - adult", "specialty": "dental"},
    "D2140": {"name": "Amalgam - one surface", "specialty": "dental"},
    "D2750": {"name": "Crown - porcelain fused to metal", "specialty": "dental"},
    "D3310": {"name": "Endodontic therapy, anterior tooth", "specialty": "dental"},
    "11200": {"name": "Removal of skin tags", "specialty": "dermatology"},
    "17000": {"name": "Destruction of benign lesions", "specialty": "dermatology"},
    "29881": {"name": "Arthroscopy, knee, surgical", "specialty": "orthopedic"},
    "27447": {"name": "Total knee arthroplasty", "specialty": "orthopedic"}
  }
}